{
    "count":"2",
    "zip_location":{"zip":"77401","city":"Bellaire","state":"TX"},
    "coupon_image_url":"http:\/\/www.rtui.com\/uploads\/couponsthumb\/",
    "coupons":[
        {   "id":"430265",
            "merchant_id":"C15EFCC8-6FF6-DE11-AD5B-0026B953348A",
            "name":"Vogue Cleaners",
            "description":"",
            "filename":"430265-vogue-cleaners.jpg",
            "title":"$1.69 Men's business shirts","title2":"20% off alterations",
			"title3":"$16.95 comforters any size",
			"title4":"",
			"title5":"",
			"alias":"view-coupon\/430265-vogue-cleaners-randalls",
			"status":"1",
			"number":"3064",
			"website":"http:\/\/www.myvoguecleaners.com\/",
			"phone":"(713) 349-8992",
			"rating":"",
			"catid":"71",
			"contract":"J199442",
			"business_email":"alyajohnson@yahoo.com",
			"category_title":"Dry Cleaners",
			"store":"Randalls",
			"address":"6600 South Rice Avenue",
			"city":"Bellaire",
			"zip":"77401",
			"state":"TX",
			"lat":"29.7072036",
			"lng":"-95.4683327",
			"cycle":"C1",
			"keywords":"",
			"type":"local",
			"created_date":"1449036000",
			"modified_date":"0",
			"expire_date":"1459400400",
			"width":"720",
			"height":"765",
			"image_timestamp":"1449076257",
			"merchant_image":"",
			"static_map":""},
        {   "id":"439559",
			"merchant_id":"11F9D50A-BFB7-E411-9DEA-005056A1FD57",
			"name":"The UPS Store",
			"description":"",
			"filename":"439559-the-ups-store.jpg",
			"title":"$2 off shipping",
			"title2":"19? Color copies",
			"title3":"Free 3 months",
			"title4":"",
			"title5":"",
			"alias":"view-coupon\/439559-the-ups-store-heb",
			"status":"1",
			"number":"0352",
			"website":"https:\/\/bellaire-tx-2567.theupsstorelocal.com\/?utm_source=Google&utm_medium=organic&utm_campaign=Local",
			"phone":"(713) 667-5116",
			"rating":"",
			"catid":"76",
			"contract":"J215201",
			"business_email":"a.r.upsstore@aol.com",
			"category_title":"General",
			"store":"Heb",
			"address":"5116 Bissonnet Street",
			"city":"Bellaire",
			"zip":"77401",
			"state":"TX",
			"lat":"29.707617",
			"lng":"-95.469014",
			"cycle":"B2",
			"keywords":"",
			"type":"local",
			"created_date":"1454047200",
			"modified_date":"0",
			"expire_date":"1464670800",
			"width":"720",
			"height":"363",
			"image_timestamp":"1454096843",
			"merchant_image":"",
			"static_map":""}],
			"feeds4":[{"coupon_id":"560938",
			"merchant":"MiniInTheBox.com",
			"merchant_id":"4440",
			"offer":"Free shipping with any order",
			"restriction":"0",
			"url":"https:\/\/go.feeds4.com\/coupons\/?pid=1336&cid=560938",
			"code":"0",
			"start_date":"2016-02-01 00:00:00",
			"end_date":"2016-02-29 00:00:00",
			"category":"Electronics",
			"deal_type":"shipping",
			"holiday":"0",
			"network":"cj",
			"country":"US",
			"logo":"",
			"website":"www.miniinthebox.com",
			"domain":"miniinthebox.com",
			"lastmodified":"2016-01-29 12:47:25"}],
			"message":"",
			"duplicates":[]
		}